{
	"categories": [
		{
			"id": "1",
			"name": "Pizza Restaurants"
    }, {
      "id": "2",
      "name": "Pizza Take Out \/ Delivery"
    }, {
      "id": "3",
      "name": "Italian Restaurants"
    }, {
      "id": "4",
      "name": "Pizza Dough Providers"
    }, {
      "id": "5",
      "name": "Grocery Stores"
    }, {
      "id": "6",
      "name": "Pizza Wholesale Suppliers"
    }, {
      "id": "7",
      "name": "Pizza Drivers"
    }
	],
	"businesses": [
		{
			"id": 362637,
			"name": "Gourmet Pizza Co",
			"address": {
				"address_1": "18-20 Mackenzie Walk",
				"address_2": "",
				"city": "Blackwall",
				"county": "Greater London",
				"country_id": "GB",
				"house_number": "",
				"postal_code": "E14 4PH",
				"lat": "51.504513",
				"lng": "-.022078",
				"address_type": "physical",
				"region_code": "",
				"timezone": "0"
			}
		}, {
			"id": 363261,
			"name": "Pizza Express",
			"address": {
				"address_1": "15 Cabot Square",
				"address_2": "",
				"city": "Blackwall",
				"county": "Greater London",
				"country_id": "GB",
				"house_number": "",
				"postal_code": "E14 4QT",
				"lat": "51.50518",
				"lng": "-.02166",
				"address_type": "physical",
				"region_code": "",
				"timezone": "0"
			}
		}, {
			"id": 1200320,
			"name": "Pizza Express",
			"address": {
				"address_1": "Peninsula Square",
				"address_2": "",
				"city": "London",
				"county": "Greater London",
				"country_id": "GB",
				"house_number": "",
				"postal_code": "SE10 0DX",
				"lat": "51.501019",
				"lng": ".004075",
				"address_type": "physical",
				"region_code": "",
				"timezone": "0"
			}
		}, {
			"id": 1782043,
			"name": "Pizza Hut",
			"address": {
				"address_1": "195 East India Dock Road",
				"address_2": "Blackwall",
				"city": "Blackwall",
				"county": "Greater London",
				"country_id": "GB",
				"house_number": "",
				"postal_code": "E14 0EA",
				"lat": "51.511405",
				"lng": "-.013781",
				"address_type": "physical",
				"region_code": "",
				"timezone": "0"
			}
		}, {
			"id": 1484140,
			"name": "Expresso Pizza",
			"address": {
				"address_1": "267 East India Dock Road",
				"address_2": "",
				"city": "Blackwall",
				"county": "London",
				"country_id": "GB",
				"house_number": "",
				"postal_code": "E14 0EG",
				"lat": "51.51154",
				"lng": "-.0101",
				"address_type": "physical",
				"region_code": "",
				"timezone": "0"
			}
		}, {
			"id": 822560,
			"name": "Expresso Pizza & Kebab House",
			"address": {
				"address_1": "267 East India Dock Road, Blackwall",
				"address_2": "",
				"city": "Blackwall",
				"county": "Greater London",
				"country_id": "GB",
				"house_number": "",
				"postal_code": "E14 0EG",
				"lat": "51.51154",
				"lng": "-.0101",
				"address_type": "physical",
				"region_code": "",
				"timezone": "0"
			}
		}, {
			"id": 1521969,
			"name": "Pizza Palace",
			"address": {
				"address_1": "243 East India Dock Road, Blackwall",
				"address_2": "",
				"city": "Blackwall",
				"county": "Greater London",
				"country_id": "GB",
				"house_number": "",
				"postal_code": "E14 0EG",
				"lat": "51.51154",
				"lng": "-.0101",
				"address_type": "physical",
				"region_code": "",
				"timezone": "0"
			}
		}, {
			"id": 1954805,
			"name": "Top Hat Pizza",
			"address": {
				"address_1": "237 East India Dock Road, Blackwall",
				"address_2": "",
				"city": "Blackwall",
				"county": "Greater London",
				"country_id": "GB",
				"house_number": "",
				"postal_code": "E14 0EG",
				"lat": "51.51154",
				"lng": "-.0101",
				"address_type": "physical",
				"region_code": "",
				"timezone": "0"
			}
		}, {
			"id": 1256056,
			"name": "Milanos Pizza",
			"address": {
				"address_1": "106 Trafalgar Road",
				"address_2": "",
				"city": "London",
				"county": "Greater London",
				"country_id": "GB",
				"house_number": "",
				"postal_code": "SE10 9UW",
				"lat": "51.484005",
				"lng": ".001506",
				"address_type": "physical",
				"region_code": "",
				"timezone": "0"
			}
		}, {
			"id": 794997,
			"name": "Pizza Express",
			"address": {
				"address_1": "6 Greenwich Church Street",
				"address_2": "",
				"city": "London",
				"county": "Greater London",
				"country_id": "GB",
				"house_number": "",
				"postal_code": "SE10 9BG",
				"lat": "51.480605",
				"lng": "-.008998",
				"address_type": "physical",
				"region_code": "",
				"timezone": "0"
			}
		}, {
			"id": 1250075,
			"name": "Pizza Vesuvio",
			"address": {
				"address_1": "208 Deptford High Street, Deptford",
				"address_2": "",
				"city": "Deptford",
				"county": "Greater London",
				"country_id": "GB",
				"house_number": "",
				"postal_code": "SE8 3PR",
				"lat": "51.480769",
				"lng": "-.026158",
				"address_type": "physical",
				"region_code": "",
				"timezone": "0"
			}
		}, {
			"id": 1431480,
			"name": "Domino's Pizza",
			"address": {
				"address_1": "201 Trafalgar Road",
				"address_2": "",
				"city": "London",
				"county": "",
				"country_id": "GB",
				"house_number": "",
				"postal_code": "SE10 9EQ",
				"lat": "51.485688",
				"lng": ".006131",
				"address_type": "physical",
				"region_code": "",
				"timezone": "0"
			}
		}, {
			"id": 1089817,
			"name": "Domino's Pizza",
			"address": {
				"address_1": "2-8 West India Dock Road",
				"address_2": "",
				"city": "Blackwall",
				"county": "Greater London",
				"country_id": "GB",
				"house_number": "",
				"postal_code": "E14 8JA",
				"lat": "51.511243",
				"lng": "-.028171",
				"address_type": "physical",
				"region_code": "",
				"timezone": "0"
			}
		}, {
			"id": 840989,
			"name": "Pizza Hut",
			"address": {
				"address_1": "5 Teredo Street",
				"address_2": "",
				"city": "Rotherhithe",
				"county": "Greater London",
				"country_id": "GB",
				"house_number": "",
				"postal_code": "SE16 7LW",
				"lat": "51.495893",
				"lng": "-.043744",
				"address_type": "physical",
				"region_code": "",
				"timezone": "0"
			}
		}, {
			"id": 1838957,
			"name": "Pizza Hut",
			"address": {
				"address_1": "Bugsby's Way",
				"address_2": "",
				"city": "London",
				"county": "Greater London",
				"country_id": "GB",
				"house_number": "",
				"postal_code": "SE10 0QJ",
				"lat": "51.489164",
				"lng": ".013639",
				"address_type": "physical",
				"region_code": "",
				"timezone": "0"
			}
		}, {
			"id": 452537,
			"name": "Millennium Pizza",
			"address": {
				"address_1": "119 Woolwich Road",
				"address_2": "",
				"city": "London",
				"county": "Greater London",
				"country_id": "GB",
				"house_number": "",
				"postal_code": "SE10 0RF",
				"lat": "51.486286",
				"lng": ".012725",
				"address_type": "physical",
				"region_code": "",
				"timezone": "0"
			}
		}, {
			"id": 1944756,
			"name": "Pizza Dice",
			"address": {
				"address_1": "138 Lower Road, Rotherhithe",
				"address_2": "",
				"city": "Rotherhithe",
				"county": "Greater London",
				"country_id": "GB",
				"house_number": "",
				"postal_code": "SE16 2UG",
				"lat": "51.492787",
				"lng": "-.046816",
				"address_type": "physical",
				"region_code": "",
				"timezone": "0"
			}
		}, {
			"id": 1890415,
			"name": "Mario's Pizza",
			"address": {
				"address_1": "133 Salmon Lane",
				"address_2": "",
				"city": "Blackwall",
				"county": "Greater London",
				"country_id": "GB",
				"house_number": "",
				"postal_code": "E14 7PG",
				"lat": "51.513453",
				"lng": "-.03286",
				"address_type": "physical",
				"region_code": "",
				"timezone": "0"
			}
		}, {
			"id": 1838659,
			"name": "Planet Pizza Ltd",
			"address": {
				"address_1": "131 Salmon Lane",
				"address_2": "",
				"city": "Blackwall",
				"county": "Greater London",
				"country_id": "GB",
				"house_number": "",
				"postal_code": "E14 7PG",
				"lat": "51.513453",
				"lng": "-.03286",
				"address_type": "physical",
				"region_code": "",
				"timezone": "0"
			}
		}, {
			"id": 220653,
			"name": "Pizza Hot Express",
			"address": {
				"address_1": "129 Greenwich South Street",
				"address_2": "",
				"city": "London",
				"county": "Greater London",
				"country_id": "GB",
				"house_number": "",
				"postal_code": "SE10 8NX",
				"lat": "51.473746",
				"lng": "-.014481",
				"address_type": "physical",
				"region_code": "",
				"timezone": "0"
			}
		}, {
			"id": 1295845,
			"name": "Ultimate Pizza",
			"address": {
				"address_1": "141 Greenwich South Street",
				"address_2": "",
				"city": "London",
				"county": "Greater London",
				"country_id": "GB",
				"house_number": "",
				"postal_code": "SE10 8NX",
				"lat": "51.473746",
				"lng": "-.014481",
				"address_type": "physical",
				"region_code": "",
				"timezone": "0"
			}
		}, {
			"id": 226538,
			"name": "Pizza Hot Express",
			"address": {
				"address_1": "Greenwich South Street",
				"address_2": "",
				"city": "London",
				"county": "Greater London",
				"country_id": "GB",
				"house_number": "",
				"postal_code": "SE10 8NX",
				"lat": "51.47348",
				"lng": "-.015851",
				"address_type": "physical",
				"region_code": "",
				"timezone": "0"
			}
		}, {
			"id": 284566,
			"name": "Famous Chicken Pizza & Curry House",
			"address": {
				"address_1": "637 Commercial Road, Limehouse",
				"address_2": "",
				"city": "Blackwall",
				"county": "Greater London",
				"country_id": "GB",
				"house_number": "",
				"postal_code": "E14 7NT",
				"lat": "51.512927",
				"lng": "-.040118",
				"address_type": "physical",
				"region_code": "",
				"timezone": "0"
			}
		}, {
			"id": 510581,
			"name": "Square Pizza",
			"address": {
				"address_1": "389 New Cross Road",
				"address_2": "",
				"city": "London",
				"county": "London",
				"country_id": "GB",
				"house_number": "",
				"postal_code": "SE14 6LA",
				"lat": "51.475592",
				"lng": "-.03448",
				"address_type": "physical",
				"region_code": "",
				"timezone": "0"
			}
		}, {
			"id": 1627852,
			"name": "Tasty Chick 'n' Pizza",
			"address": {
				"address_1": "159 Devons Road",
				"address_2": "",
				"city": "Bow",
				"county": "Greater London",
				"country_id": "GB",
				"house_number": "",
				"postal_code": "E3 3QX",
				"lat": "51.520964",
				"lng": "-.019116",
				"address_type": "physical",
				"region_code": "",
				"timezone": "0"
			}
		}
	]
}
